iyear,imonth,iday,country_txt,provstate,city,latitude,longitude,nkill,location,summary
1994,1,0,United States,Montana (U.S. State),Helena,46.58976,-112.021204,0,Trees next to clinic.,"1/0/1994: John Casserly set trees on fire that were located outside of the Intermountain Planned Parenthood in Helena, Montana, United States.  The fire did not spread to the abortion facility, but some evergreen trees were damaged."
1994,1,6,United States,New York (U.S. State),New York City,40.71455,-74.007124,0,Manhattan,"1/6/1994: In a series of two related incidents, a group identifying itself as the Maccabee Squad and Shield of David placed a crudely constructed bomb outside of an office building housing many left-wing Jewish organizations in Manhattan, New York, United States.  The bomb failed to detonate due to a faulty timer.  It was subsequently discovered and disarmed by the police."
1994,1,6,United States,New York (U.S. State),New York City,40.71455,-74.007124,0,Manhattan,"1/6/1994: In a series of two related incidents, a group identifying itself as the Maccabee Squad and Shield of David placed a crudely constructed bomb outside of an office building housing the New Israel Fund in Manhattan, New York, United States.  The bomb failed to detonate due to a faulty timer.  It was subsequently discovered and disarmed by the police."
1994,1,25,United States,Iowa (U.S. State),Ames,42.025345,-93.620199,0,Next to Ames Mall,"1/25/1994: Two members of the Aryan Republican Army robbed the FirstStar Bank in Ames, Iowa, United States.  The perpetrators left a fake bomb behind before leaving.  $11,000 was stolen."
1994,1,27,United States,California (U.S. State),San Diego,32.715695,-117.161719,0,at San Diego Meat Company at 17th & C Streets in San Diego,"01/27/1994: Members of a group called the Farm Animal Revenge Militia (FARM) used flammable liquid to set fire to two refrigerated trucks owned by the San Diego Meat Company in San Diego, California in the United States.  Additionally, they spray painted ""Meat is murder"" and the acronym ""F.A.R.M."" on the company building.  The arson caused $40,000 in loss and damage.  Less than half an hour after the fire was set, a man claiming to represent FARM called television station KUSI and claimed to have started the blaze.  There were no casualties in the incident. This incident is related to a similar incident of arson, by the same perpetrators, just three days later at San Diego Meat Company (13094)."
1994,1,30,United States,California (U.S. State),San Diego,32.715695,-117.161719,0,at San Diego Meat Company at 17th & C Streets in San Diego,"01/30/1994: Members of the Farm Animal Revenge Militia (FARM) used flammable liquid to set fire to two rooms of the San Diego Meat Company in San Diego, California in the United States.  Additionally, they spray painted ""Meat is murder"" and the acronym ""F.A.R.M. on the company building, similar to the incident at the company just three days earlier (12794).  The arson caused $60,000 in damage to the building and $15,000 to its contents for a total of $75,000 in damage.  There were no casualties in the incident."
1994,2,15,United States,Iowa (U.S. State),Davenport,41.53826,-90.576404,0,In a shopping plaza,"2/15/1994: Two members of the Aryan Republican Army robbed the Brenton First National Bank in Davenport, Iowa, United States.  The perpetrators left a fake bomb behind before leaving.  $4,400 was stolen."
1994,3,4,United States,Wisconsin (U.S. State),Green Bay,44.512795,-88.010159,0,,"3/4/1994: Two members of the Aryan Republican Army robbed the Associated Bank in Green Bay, Wisconsin, United States.  It is unknown how much money was stolen."
1994,6,8,United States,Ohio (U.S. State),Springdale,39.291087,-84.482954,0,,"6/8/1994: Two members of the Aryan Republican Army robbed the Society National Bank in Springdale, Ohio, United States.  $11,890 was stolen but the money was attached to a dye pack used by the bank as a security device.  While the robbers were driving away, the dye pack exploded rendering the money useless."
1994,7,27,United States,Washington (U.S. State),Scott Lake,46.919086,-122.939912,0,"at Dave Littlejohn Logging Company east of Olympia, Washington","7/27/1994: Earth First! members claimed responsibility for setting arson to logging equipment at Dave Littlejohn Logging Company near Olympia, Washington in the United States.  The arson destroyed a log loader.  There were no casualties in the incident.  This incident was one in a  series of two; the second arson occurred four days later at the same logging company, damaging more equipment.  Nine days later, both incidents were claimed in a phone call to the contract logging association, stating that the destruction was ""retaliation by the Earth Firsters to protect the planet Earth from loggers."""
1994,7,31,United States,Washington (U.S. State),Scott Lake,46.919086,-122.939912,0,"at Dave Littlejohn Logging Company east of Olympia, Washington","07/31/1994: Earth First! members claimed responsibility for setting arson to logging equipment at Dave Littlejohn Logging Company near Olympia, Washington in the United States.  The arson caused damage to a log skidder, a bulldozer and two fire prevention trucks .  There were no casualties in the incident.  This incident was one in a  series of two; the first arson occurred four days earlier at the same logging company, damaging more equipment.  Nine days later, both incidents were claimed in a phone call to the contract logging association, stating that the destruction was ""retaliation by the Earth Firsters to protect the planet Earth from loggers."""
1994,8,9,United States,Vermont (U.S. State),St. Albans,44.81302,-73.083034,0,Bomb placed on driveway of clinic,"8/9/1994: Helen Virginia Ames placed a bomb outside of the Planned Parenthood of Northern New England in St. Albans, Vermont, United States.  The bomb was discovered by staff at the health care facility before the clinic opened for the day.  The device was safely removed from the scene."
1994,8,10,United States,Minnesota (U.S. State),Brainerd,46.353165,-94.200689,0,Fire ignited in the waiting room of the facility.,"8/10/1994: Unknown perpetrators ignited a fire within the Planned Parenthood Brainerd Clinic in Brainerd, Minnesota, United States.  There were no casualties, but the health care facility along with three adjacent businesses were destroyed resulting in $373,000 in damages."
1994,9,21,United States,Kansas (U.S. State),Overland Park,38.984895,-94.671684,0,,"9/21/1994: Two members of the Aryan Republican Army robbed the Boatman's Bank in Overland Park, Kansas, United States.    $13,000 was stolen."
1994,10,9,United States,California (U.S. State),Redding,40.587515,-122.392934,0,,"10/9/1994: In a series of related attacks, Richard Thomas Andrews ignited a fire at the Redding Feminist Woman's Health Center in Redding, California, United States.  There were no casualties, but the abortion clinic sustained $4,000 in damages."
1994,10,9,United States,California (U.S. State),Chico,39.73201,-121.841985,0,,"10/9/1994: In a series of related attacks, Richard Thomas Andrews ignited a fire at the Planned Parenthood of Shasta-Diablo clinic in Chico California, United States.  There were no casualties, but the abortion clinic sustained $35,000 in damages."
1994,10,11,United States,Montana (U.S. State),Kalispell,48.20164,-114.314901,0,,"10/11/1994:  Richard Thomas Andrews set two fires within the offices of Dr. James Armstrong in Kalispell, Montana, United States.  There were no casualties, but the office sustained an estimated $75,000 in damages.  Dr. Armstrong was the only physician who performed abortions in the area."
1994,10,15,United States,Maine (U.S. State),Strong,44.815869,-70.218229,0,"off of Foster Hill Road in Freeman Township in Franklin County, Maine","10/15/1994: Unknown perpetrators torched a skidder belonging to lumberman, David Boynton, off of Foster Hill Road in Franklin County, Maine in the United States. There were no casualties in the incident, but the skidder, which was destroyed in the arson, was valued at $25,000.  Before the skidder had been deliberately set on fire, the filters were removed and strewn around the area."
1994,10,16,United States,Texas (U.S. State),Lubbock,33.59233,-101.855869,1,Martin Luther King Blvd.,"10/16/1994:  In a series of three related attacks, Roy Ray Martin, El Trevino Muniga, and Ricky Rivera Muniga lured Melvin Johnson, an African American, to their car in Lubbock, Texas, United States and shot him.  Melvin Johnson died from his wounds.  The perpetrators hoped to incite a race war."
1994,10,16,United States,Texas (U.S. State),Lubbock,33.59233,-101.855869,0,Martin Luther King Blvd.,"10/16/1994:  In a series of three related attacks, Roy Ray Martin, El Trevino Muniga, and Ricky Rivera Muniga lured Autry Morgan Vaughn Jr., an African American, to their car in Lubbock, Texas, United States and shot him.  Autry Morgan Vaughn Jr. was wounded in the jaw but survived.  The perpetrators hoped to incite a race war."
1994,10,16,United States,Texas (U.S. State),Lubbock,33.59233,-101.855869,0,Martin Luther King Blvd.,"10/16/1994:  In a series of three related attacks, Roy Ray Martin, El Trevino Muniga, and Ricky Rivera Muniga lured Triellis Lee Stewart, an African American, to their car in Lubbock, Texas, United States and shot him.  Triellis Lee Stewart was shot in the hand and had a finger amputated.  The perpetrators hoped to incite a race war."
1994,10,17,United States,California (U.S. State),San Jose,37.338475,-121.885794,0,Incendiary device thrown through second floor window,"10/17/1994: Unknown perpetrators threw a Molotov cocktail into the Women's Community Clinic in San Jose, California, United States.  The firebomb did not ignite but the abortion clinic still sustained $500 in damages."
1994,10,25,United States,Ohio (U.S. State),Columbus,39.96196,-83.002984,0,Livingston Avenue,"10/25/1994: Three members  of the Aryan Republican Army robbed the Columbus National Bank in Columbus, Ohio, United States.  The perpetrators left an explosive device at the bank that authorities later determined to be operable.  $3,400 was stolen."
1994,11,11,United States,Iowa (U.S. State),Des Moines,41.58979,-93.615659,0,,"11/11/1994: Two members of the Aryan Republican Army robbed the East Des Moines National Bank in Des Moines, Iowa, United States.  $29,000 was stolen."
1994,12,9,United States,Ohio (U.S. State),Middleburg Heights,41.371738,-81.810877,0,,"12/9/1994: Four members of the Aryan Republican Army robbed the Third Federal Savings & Loan in Middleburg Heights, Ohio, United States.  $7,906 was stolen."
1994,12,10,United States,South Dakota (U.S. State),Rapid City,44.081165,-103.230889,0,,"12/10/1994: Unknown perpetrators set a fire at a Planned Parenthood facility being constructed in Rapid City, South Dakota, United States.  There were no casualties, but the unfinished building sustained $1,000 in damages."
1994,12,13,United States,Virginia (U.S. State),Newport News,36.980292,-76.427556,0,Flare dropped through mail slot.,"12/13/1994: Jennifer Spearle and Ryan Clark Martin ignited a flare at the Peninsula Medical Center for Women in Newport News, Virginia, United States.  There were no casualties, but the abortion clinic sustained $400 in damages."
1994,12,14,United States,Kansas (U.S. State),Kansas City,39.11338,-94.626824,0,Firebomb thrown off roof of the building,"12/14/1994: In a series of related attacks, unknown perpetrators threw a firebomb at the Central Family Medicine clinic in Kansas City, Kansas.  There were no casualties but the abortion clinic sustained around $1,000 in damages."
1994,12,14,United States,Missouri (U.S. State),Kansas City,39.10296,-94.583062,0,Incendiary device placed at front door,"12/14/1994: In a series of related attacks, unknown perpetrators attempted to light a firebomb in front of the Planned Parenthood of Greater Kansas City in Kansas City, Missouri, however, the incendiary device failed to ignite."
1994,12,27,United States,Missouri (U.S. State),Maryland Heights,38.716635,-90.436829,0,,"12/27/1994: Four members of the Aryan Republican Army robbed the Commercial Bank in Maryland Heights, Missouri, United States.  Before leaving the bank, one of the perpetrators set off a smoke grenade.  $30,144 was stolen."
1994,12,30,United States,Massachusetts (U.S. State),Brookline,42.333473,-71.120476,1,,"12/30/1994:  As part of a multiple attack, John Salvi III entered the Planned Parenthood League of Massachusetts clinic in Brookline, Massachusetts, United States, and fired at employees, patients, and visitors within the abortion facility.  Shannon Lowney, a receptionist at the clinic, was shot and killed and Anjana Agrawal, Antonio Hernandez, and Brian Murray were injured."
1994,12,30,United States,Massachusetts (U.S. State),Brookline,42.333473,-71.120476,1,,"12/30/1994:  As part of a multiple attack, John Salvi III entered the Preterm Health Services in Brookline, Massachusetts, United States, and fired at employees, patients, and visitors within the abortion facility.  Leanne Nichols, a receptionist at the clinic, was shot and killed and Jane Sauer and Richard J. Seron were injured.  Seron was able to scare Salvi away by firing at him with his own gun."
1994,12,31,United States,Virginia (U.S. State),Norfolk,36.846825,-76.285069,0,Shots fired at lobby in the rear of the building,"12/31/1994: John Salvi III approached the Norfolk's Hillcrest Clinic in Norfolk, Virginia, United States, and began firing shots at the abortion facility before his gun jammed and he drove away.  There were no casualties, but all windows in the lobby of the building were shattered.  Salvi was captured by authorities shortly after the incident."
1995,1,9,United States,Washington (U.S. State),Olympia,47.039225,-122.891429,0,,"1/9/2005: Unknown perpetrators ignited a fire at the Eastside Women's Health Clinic in Olympia, Washington, United States.  There were no casualties, but the abortion clinic sustained around $500,000 in damages."
1995,1,18,United States,Oregon (U.S. State),Grants Pass,42.44321,-123.324639,0,"Murphy, Oregon","1/18/1995: Paul James Priestley used a Molotov cocktail to set fire to store selling adult magazines in Grants Pass, Oregon, United States.  The business was destroyed.   Immediately following this incident, Priestley - armed with a shotgun and two pipe bombs - entered the nearby Lincoln Savage Middle School.  Wielding his shotgun, Priestley threatened school officials and demanded a ride to an abortion clinic.  He wanted to blow up a health care facility that performed abortions and kill a ""couple of doctors.""  However, his demands were unheeded  and, soon after, Priestley got into a scuffle with Damian McLean, the wrestling coach of the local high school.  Priestley was shot and wounded in the hip with his own shotgun and subsequently apprehended by the police."
1995,3,6,United States,Virginia (U.S. State),Norfolk,36.846825,-76.285069,0,,"3/6/1995: Jennifer Spearle and Ryan Clark Martin ignited a fire at the Tidewater Women's Health Center in Norfolk, Virginia, United States.  There were no casualties, but the abortion clinic sustained $5,000 in damages."
1995,3,28,United States,Nevada (U.S. State),Lamoille Canyon,40.729069,-115.47876,0,Humboldt National Forest,"3/28/1995: Michael Glen Mathias and Joseph Grant bombed an outhouse on a campground in Lamoille, Canyon Nevada, United States.  There were no casualties but the outhouse was damaged."
1995,3,29,United States,Iowa (U.S. State),Des Moines,41.58979,-93.615659,0,,"3/29/1995: Four members of the Aryan Republican Army robbed the Boatman's Bank in Des Moines, Iowa, United States.  The perpetratros left behind a fake pipe bomb at the bank and a live grenade in one of the getaway cars.  $28,225 was stolen."
1995,4,11,United States,New York (U.S. State),DeWitt,43.035066,-76.065477,0,"at Oneonta Beef Inc., a meat packing plant outside Syracuse, NY","4/11/1995: An unexploded homemade incendiary device was found underneath a delivery truck of the Oneonta Beef Inc., a meat distribution plant in DeWitt, New York, a suburb of Syracuse in the United States.  There were no casualties, nor property damage as the device failed to ignite. The device was made from a pair of two-liter plastic soda bottles containing flammable liquid, and was held together with duct tape, a book of matches and a fuse.  Animal rights activists, specifically members of the Animal Liberation Front (ALF) who were also believed to be affiliated with the Animal Defense League were suspected to be responsible for the incident.    Three days later, a second incendiary was placed at the beef company, and that time, it caused a fire resulting in damages (41495)."
1995,4,13,United States,Florida (U.S. State),Jacksonville,30.33138,-81.655799,0,Bomb placed in front of tax collector's office,"4/13/1995:  Unknown perpetrators detonated a bomb outside of the Duval county tax collector's office in Jacksonville, Florida, United States.  Authorities were unsure whether the target of the attack was the tax office or the adjacent All Women's Clinic.  There were no casualties but a hole was blown into the roof of the tax collector's office and all of the facility's windows were shattered.  It is unclear if the abortion clinic sustained damages."
1995,4,14,United States,New York (U.S. State),DeWitt,43.035066,-76.065477,0,"at Oneonta Beef Inc., a meat packing plant outside Syracuse, NY","4/14/1995: A homemade incendiary device ignited at the Oneonta Beef Inc. meat company in DeWitt, New York, a small suburb of Syracuse, in the United States.  The arson, which started at the garage nearby the building, caused about $6,000 in damage to the building.  The letters ""ALF"" and the slogans, ""meat sucks"" and ""meat is murder,"" were spray-painted at the scene.  There were no casualties in the incident, which is related to a prior incident, just three days earlier, where the same building was targeted with an incendiary, but the device failed to ignite (41195).  Animal rights activists, specifically members of the Animal Liberation Front (ALF) who were also believed to be affiliated with the Animal Defense League were suspected to be responsible for the incident."
1995,4,15,United States,California (U.S. State),Aptos,36.977173,-121.899402,0,"at General Lumber Company at 3573 Fern Flat Road in Aptos, CA","4/15/1995: Three logging trucks were set ablaze by explosions at the General Lumber Company in Aptos, California in the United States.  The extent of monetary property damage is unknown, but there were no casualties in the incident. Additionally, the type of explosive devices was unknown, and the same was true of the motives and perpetrator(s)."
1995,5,4,United States,Ohio (U.S. State),Canton,40.79781,-81.371569,0,Mailbox,"5/4/1995: Unknown perpetrators detonated a pipe bomb inside the mailbox belonging to the medical director of the Planned Parenthood of Stark County in Canton, Ohio, United States.  The mailbox, located across the street from the medical director's house, was destroyed and a window at her residence was shattered."
1995,5,23,United States,Kentucky (U.S. State),Louisville,38.25486,-85.766404,0,Near Interstate-65,"5/23/1995: Two members of the Aryan Republican Army robbed the Great Financial Bank in Louisville, Kentucky, United States.  The perpetrators left behind a fake bomb.  It is unknown exactly how much money was stolen because the money was attached to a dye pack used by the bank as a security device.  While the robbers were driving away, the dye pack exploded and only $2,400 was able to be salvaged."
1995,6,10,United States,Utah (U.S. State),Salt Lake City,40.759505,-111.888229,0,"at Majestic Meats at 115 W. 1700 South in Salt Lake City, UT","06/10/1995: Majestic Meats company in Salt Lake City, Utah in the United States was firebombed by animal activist and suspected member of the Animal Liberation Front (ALF), Jamie Boulter, who was  charged with arson for throwing a molotov cocktail into the building.  There were no casualties in the incident.  The flames scorched the second floor, but the smoke damage was minimal.  The extent of monetary damage is unknown. It appears other perpetrators were involved in this incident in collaboration with Boulter. The initials ""ALF"" along with ""Meat is murder"" and ""Vegan Power,"" were spray-painted on several of the company's trucks."
1995,6,15,United States,Utah (U.S. State),Murray,40.66211,-111.888319,0,"at Tandy Leather building at 5138 South State Street in Murray, Utah","06/15/1995: The Tandy Leather Factory in Murray, Utah in the United States, was firebombed by animal rights activist, Jacob Kenison, who belonged to the Animal Liberation Front (ALF), causing $300,000 in damages.  In addition to the Molotov cocktail thrown through the building, bricks were thrown through windows, and graffiti sprayed with slogans such as ""Leather is dead"", ""murderers,"" and ""ALF.""  There were no casualties in the incident.  Another perpetrator may have also involved in the firebombing.   Kenison was convicted of the firebombing and served time in prison."
1995,6,20,United States,South Carolina (U.S. State),Greeleyville,33.577784,-79.988963,0,,"6/20/1995: Two members of the Christian Knights of the Ku Klux Klan set fire to the Mount Zion African Methodist Episcopal Church in Greeleyville, South Carolina, United States.  The Black Baptist church was completely destroyed."
1995,6,21,United States,South Carolina (U.S. State),Bloomville,33.60939,-80.209839,0,,"6/21/1995: Two members of the Christian Knights of the Ku Klux Klan set fire to the Macedonia Baptist Church in Bloomville, South Carolina, United States.  The Black Baptist church was completely destroyed."
1995,6,22,United States,Wisconsin (U.S. State),Glendale,43.125946,-87.928409,0,,"6/22/1995: Two members of the Aryan Republican Army robbed the Guaranty Bank in Glendale, Wisconsin, United States.  Before leaving the bank, the perpetrators left a fake bomb and set off a smoke grenade.  A live grenade was also left in the getaway car.  It is unknown exactly how much money was stolen because the money was attached to a dye pack used by the bank as a security device.  While the robbers were driving away, the dye pack exploded and only $30,000 was able to be salvaged."
1995,8,16,United States,Missouri (U.S. State),Bridgeton,38.755299,-90.406378,0,,"8/16/1995: Two members of the Aryan Republican Army robbed the Magna Bank in Bridgeton, Missouri, United States.  Before leaving the bank, the perpetrators left a fake pipe bomb and set off a smoke grenade.  A live grenade was also left in the getaway car.  $16,606 was stolen."
1995,8,30,United States,Wisconsin (U.S. State),Madison,43.07295,-89.386694,0,4225 East Towne Blvd.,"8/30/1995: Five members of the Aryan Republican Army attempted to rob Bank One in Madison, Wisconsin, United States.  Before leaving the bank the robbers left a fake bomb and set off a smoke grenade.  $9,845 was stolen."
1995,11,7,United States,Florida (U.S. State),Clearwater,27.9656,-82.799764,0,Firebomb thrown at window of building,"11/7/1995:  Unknown perpetrators through a Molotov cocktail at the National Women's Health Services clinic in Clearwater, Florida, United States.  The firebomb failed to penetrate the facility, but the exterior of the building sustained $400 in damages.  There were no casualties."
1995,11,22,United States,Missouri (U.S. State),St. Louis,38.62774,-90.199514,0,,"11/22/1995: Two members of the Aryan Republican Army robbed the Roosevelt Bank in St. Louis, Missouri, United States.  Before leaving the bank, the perpetrators left a fake pipe bomb and set off a smoke grenade.  $2,500 was stolen."
1995,12,19,United States,Ohio (U.S. State),Sylvania,41.715575,-83.704249,0,,"12/19/1995: Three members of the Aryan Republican Army robbed the Mid-America Bank in Sylvania, Ohio, United States.  $7,400 was stolen."
1995,12,24,United States,Oregon (U.S. State),Eugene,44.04992,-123.088544,0,"at Dutch Girl Dairy ice cream shop on Grant Street in Eugene, OR","12/24/1995: Member of the Animal Liberation Front (ALF), Kevin Tubbs, placed three timed incendiary devices on three ice cream trucks at the Dutch Girl Dairy ice cream shop in Eugene, Oregon in the United States.  Two of the devices, all of which were made of one-liter plastic bottles filled with a flammable liquid and a timing device, consisting of paper matches wrapped around an incense stick which was placed into a fuel-soaked kitchen sponge, ignited two trucks.  The third device malfunctioned and was discovered in the wheel of the truck after a security guard and the fire department extinguished the first two fires; the device was rendered safe.  The two truck fires caused over $15,000 in damages, but there were no casualties in the incident.  After 6 years of ecotage and arson attacks, Tubbs was finally captured in 2005 and indicted for his crimes in 2006; in 2007, Tubbs was sentences to 12 years and 7 months in prison."
1996,1,12,United States,Virginia (U.S. State),Virginia Beach,36.848311,-75.979278,0,,"1/12/1996: Unknown perpetrators sent a mail bomb to the Christian Broadcasting Network in Virginia Beach, Virginia, United States.  The device was addressed to Reverend Pat Robertson who, at the time, had a television show on the station.  The suspicious package was discovered and subsequently blown up by the police."
1996,4,12,United States,California (U.S. State),Vacaville,38.351355,-121.993429,0,Interstate 80,"4/12/1996: Unknown perpetrators placed a pipe bomb in the 1955 Chevrolet truck of Gene Ainslee, a federal mine inspector.  The bomb detonated in the truck while Gene and his wife Rita were driving eastbound on Interstate 80 near Vacaville, California, United States.  Both Ainslees were injured but managed to escape the vehicle before it was engulfed with flames.  Before the incident, the United States Department of Labor office in Vacaville, where Gene Ainslee was employed, received an anonymous phone call stating ""you guys are all (expletive) dead. Timothy McVeigh lives on."""
1996,7,11,United States,Florida (U.S. State),Miami,25.728985,-80.237419,0,Little Havana,"7/11/1996: Unknown perpetrators threw a firebomb through the window of Centro Vasco, a Cuban restaurant in Miami, Florida, United States.  There were no casualties but the incendiary device ignited a small fire in the restaurant.  Cuban singer Rosita Fornes  was scheduled to perform five shows at Centro Vasco, however, they were subsequently canceled as a result of this incident."
1996,8,16,United States,Utah (U.S. State),West Jordan,40.60675,-111.938754,0,"at a McDonald's nearing completion of construction at 1250 W and 9000 S in West Jordan, UT","8/16/1996: Four animal-rights activists used a molotov cocktail and gasoline to set fire to a McDonald's fast food restaurant in West Jordan, Utah in the United States.  There were no injuries in the incident, which destroyed about 80% of the building under construction, which was nearing completion, causing at least $240,000 in damage.  In 2007, Mark Klein, Ryan Durfee, and Jason Troff were each sentenced to a year in prison after admitting their responsibility in the incident.  A fourth perpetrator was a 17-year old juvenile whose record was not released, was also charged in the incident after confessing, and then sentenced to probation."
1996,8,31,United States,Tennessee (U.S. State),Piperton,35.04819,-89.620111,0,"at RusDun Farms Inc. in Piperton, Tennessee","8/31/1996: The Animal Liberation Front (ALF) claimed responsibility for planting four incendiary devices in trucks and the loading dock area of the RusDun Farms Inc. in Piperton, Tennessee in the United States. Only one of the firebombs ignited, causing damage to one of the trucks.  The group also said that they sabotaged warehouse air conditioner units.  The extent of monetary property damage is unknown.  There were no casualties in the incident.  ALF sent out a communiqu?by fax to various news organizations, stating the group committed the attack on ''behalf of more than a half-million chickens imprisoned and in forced labor at the factory farm.''"
1996,9,18,United States,Oklahoma (U.S. State),Broken Arrow,36.050845,-95.789504,0,Device ignited at rear of building,"9/18/1996: A juvenile (whose name was not released by authorities) threw a Molotov cocktail at the Planned Parenthood of Eastern Oklahoma and Western Arkansas Broken Arrow Family Planning clinic in Oklahoma, United States.  There were no casualties but the abortion clinic was damaged."
1996,10,3,United States,California (U.S. State),Lancaster,34.698905,-118.144779,0,1255 W. Avenue I,"10/3/1996: Geoffrey Barr bombed the Back Door Bar, a gay establishment, in Lancaster, California, United States.  One person was injured and the bar sustained minor damage."
1996,10,28,United States,Oregon (U.S. State),Detroit,44.73573,-122.150849,0,"at the Detroit Ranger Station in Williamette National Forest in Detroit, OR","10/28/1996: Two members of the Animal Liberation Front (ALF) and Earth Liberation Front (ELF), Jacob Ferguson and Josephine Overaker, were responsible for placing two incendiary devices at the Detroit Ranger Station in the Williamette National Forest in Detroit, Oregon in the United States.  One device was lit and placed on the roof of the station, and the second ignited in the back of one of the United States Forest Service (USFS) pickup trucks.  The one on the roof failed to detonate, but the arson from the second incendiary caused about $21,500 worth of damage to the ranger station facilities.  There were no casualties in the incident.  Ferguson and Overtaker also spray-painted graffiti on the trucks and walls of the building with slogans such as “Earth Liberation Front,"" the anarchist “A,?and “STOP RAPING OUR FORESTS U.S.F.S.?Ferguson and Overtaker were part of a group calling themselves ""The Family,"" which proceeded to commit nearly 20 arson and ecotage attacks over a 6 year period.  Upon fear of a life behind bars, Ferguson became a government informant and witness in the case, landing him a sentence of 2 years probation, and as of 2008, Overtaker remained a fugitive being sought by the government after being indicted for her involvement in the crimes."
1996,10,30,United States,Oregon (U.S. State),Oakridge,43.747695,-122.456799,0,"at the US Forest Service Oakridge Ranger Station in Williamette National Forest in Oakridge, Oregon","10/30/1996: Three members of the Animal and Earth Liberation Fronts (ALF and ELF), Jacob Ferguson, Kevin Tubbs and Josephine Overaker, set a gasoline fire at the Oakridge Ranger Station in the Williamette National Forest in Oakridge, Oregon in the United States.  One incendiary device was placed in a recycling dumpster at the southwest corner of the ranger station, and the second was planted on the outside of one of the walls of the station, causing an estimated $3,316,150 in damages to replace the building, and $1,758,039 for the contents, for a total loss of $5,074,189, in addition to a vast amount of lost research material.  There were no casualties in the incident.  The three selected the Oakridge Ranger Station for the target of this arson due to their familiarity with it during their opposition to the Warner Creek timber sale sometime earlier.  The perpetrators were part of a group calling themselves ""The Family,"" which proceeded to commit nearly 20 arson and ecotage attacks over a 6 year period.  Upon fear of a life behind bars, Ferguson became a government informant and witness in the case, landing him a sentence of 2 years probation, and as of 2008, Overtaker remained a fugitive being sought by the government after being indicted for her involvement in the crimes. Tubbs was sentenced to 12 years and 7 months in prison for his involvement."
1996,11,12,United States,Minnesota (U.S. State),Bloomington,44.820491,-93.306364,0,"at Alaskan Fur Company, Inc.  on Normandale Boulevard, near Bloomington, MN","11/12/1996:  Members of the Animal Liberation Front (ALF) are suspected to be responsible for throwing an incendiary through the window of Alaskan Fur Company Inc., near Bloomington, Minnesota in the United States, resulting in arson which caused an estimated $2 million in property damage to fur coats and other merchandise as well as $250,000 in structural damage to the two-story brick building.  There were no casualties in the incident."
1997,1,1,United States,Oklahoma (U.S. State),Tulsa,36.149745,-95.993334,0,One firebomb ignited inside the kitchen located at the rear of the building.  The other firebomb ignited on the outside grass of the facility.,"1/1/1997: A juvenile (whose name was not released by authorities) threw two Molotov cocktails at the Reproductive Services clinic in Tulsa, Oklahoma, United States.  There were no casualties but the abortion clinic sustained $7,000 in damages."
1997,1,13,United States,New York (U.S. State),New York City,40.71455,-74.007124,0,Manhattan,"1/13/1997:  Unknown perpetrators sent four letter bombs to the Al-Hayat newspaper's bureau at the United Nations Headquarters in Manhattan, New York, United States.  All four bombs, postmarked from Alexandria Egypt, were discovered and subsequently disarmed."
1997,1,19,United States,Oklahoma (U.S. State),Tulsa,36.149745,-95.993334,0,Bombs detonated at the back of the facility,"1/19/1997: A juvenile (whose name was not released by authorities) detonated two pipe bombs at the Reproductive Services clinic in Tulsa, Oklahoma, United States.  There were no casualties but the abortion clinic sustained $2,500 in damages."
1997,2,1,United States,Oklahoma (U.S. State),Tulsa,36.149745,-95.993334,0,,"2/1/1997: A juvenile (whose name was not released by authorities) broke into the Reproductive Services clinic in Tulsa, Oklahoma, United States, and fired several rounds from his handgun at medical and office equipment.  An FBI monitor, a procedure table, and some medical equipment were damaged."
1997,2,13,United States,Florida (U.S. State),Jacksonville,30.33138,-81.655799,0,,"2/13/1997:  Harry Shapiro placed a pipe bomb at the Jacksonville Jewish Center in Jacksonville, Florida, United States.  The bomb did not detonate and was discovered by a group of children nine days later.  Former Israeli Prime Minister Shimon Peres spoke at the Conservative Jewish synagogue on the same day the bomb was scheduled to detonate."
1997,3,11,United States,Utah (U.S. State),Sandy,40.56976,-111.894984,0,"at the Fur Breeders Agricultural Cooperative at 8700 South 700 West in Sandy, UT","03/11/1997: Members of the Animal Liberation Front (ALF) planted six pipe bombs, some laced with nails, at the offices and trucks of the Fur Breeders Agricultural Cooperative, a plant producing feed for mink farms, in Sandy, Utah, United States.  All six bombs exploded, causing $1,000,000 in property damage.  There were no casualties in the incident, and none of the 800 mink in the building were harmed. The same day, a caller phoned the KSL radio station, claiming responsibility for the incident in the name of ALF, and a second call was made to Coalition to Abolish the Fur Trade, also claiming the incident in the name of animal rights activists, but there was no specific reference to a person or group.  The perpetrators, Alexander David Slack, Clinton Colby Ellerman, Douglas Joshua Ellerman, Sean Albert Gautschy,  Adam Troy Peace, and Andrew Bishop, were arrested and indicted for their involvement in the incident and an alleged earlier attempt to bomb the co-op, which was aborted when they saw police presence.  After a trial, Sean Albert Gautschy,  Adam Troy Peace, and Andrew Bishop were acquitted, while Clinton Ellerman was sentenced to 5 years in prison, Douglas Ellerman to 7 years (which was later reduced by 13 months); Slack committed suicide months prior to the trial."
1997,3,18,United States,Utah (U.S. State),Ogden,41.222365,-111.970459,0,"at Montgomery Fur Company in Ogden, UT","03/18/1997: Three animal rights activists attempted to burn down the Montgomery Fur Company in Ogden, Utah in the United States, when they poured 25 gallons of gasoline around the outside of the building.  However, the night security guard saw this, and managed to extinguish a lit fuse, before any fire occurred.  There were no casualties in the incident, and no property damage was reported.  Cameron M. Kraus and  Bret G. Walton, were charged and pleaded guilty to third-degree felony attempted aggravated arson in the case, and both sentenced to 30 days in jail, 30 days of home confinement, and one year probation.  Trev J. Poulson went to trial, was convicted and sentenced to probation.  The Animal Liberation Front claimed credit for the attack, but this claim was not confirmed."
1997,3,18,United States,California (U.S. State),Davis,38.546644,-121.744807,0,"at the Center for Comparative Medicine at the University of California, Davis","03/18/1997:  The Animal Liberation Front (ALF) claimed responsibility for setting arson the   site where the partially constructed Center for Comparative Medicine was in the process of being built, at the University of California, Davis, California, in the United States, causing $1,000 in damage.  Plastic material and evidence of a flammable liquid were found at the scene.  Several news rooms in Sacramento, including the Sacramento Bee, received anonymous faxes a few days later, claiming that ALF had firebombed the building as a way to recognize the 10-year anniversary of the $4.6 million arson fire a t the campus's John E. Thurman Veterinary Diagnostic Laboratory. There were no casualties in the incident."
1997,5,3,United States,Colorado (U.S. State),Colorado Springs,38.83345,-104.821814,0,2020 North Academy Blvd.,"5/3/1997: James Cleaver and Jack Dowell were convicted of setting a fire in the Internal Revenue Service Office located on the third floor of the Bell Tower Office Building in Colorado Springs, Colorado, United States.  Ronald Sherman pled guilty to driving the getaway car.  Cleaver and Dowell dropped five gallons of gasoline onto the floor of the office and, before fleeing, placed a timing device that ignited the fire ten minutes later.  The office building was gutted causing $2.5 million dollars in damages and a firefighter was injured fighting the blaze."
1997,7,21,United States,Oregon (U.S. State),Redmond,44.27257,-121.175874,0,"at Cavel West horse meat packing plant at 1607 SE Railroad Blvd, in Redmond, Oregon","07/21/1997: Five members of the Animal and Earth Liberation Fronts (ALF and ELF), Jacob Ferguson, Kevin Tubbs, Jonathan Paul,  Jennifer Kolar, and Joseph Dibee, set fire to the Cavel West horse meat packing plant and slaughterhouse in Redmond, Oregon in the United States.  The perpetrators drilled holes behind refrigeration units at the plant, poured ignitable liquid into the drilled holes, stuffed rags into the holes and placed buckets under the rags. Additionally, three separate incendiary devices, made of a mixture of soap, gasoline and diesel, and then blended into a gel, were placed in and around the buildings of the plant.  One of the incendiaries ignited prematurely, causing the group to abandon the rest of the plan.  The remaining two incendiaries failed to ignite due to malfunction. There were no casualties in the incident, but the fire caused over $1,000,000 in damage, destroying the facility and leaving it out of operation.  A few days after the fire, a communiqu?was put out by the Animal Liberation Front, claiming responsibility for the arson."
1997,10,28,United States,New York (U.S. State),Fairport,43.10106,-77.441914,0,,"10/28/1997: A gunman attempted to assassinate Dr. David Gandell, a physician who performed abortions, while he was at his home in Fairport, New York, United States. Authorities suspect Army of God member James Charles Kopp, who has been convicted of a similar attack that took place in 1998."
1997,11,30,United States,Oregon (U.S. State),Burns,43.58604,-119.054654,0,"at the Burns Bureau of Land Management Wild Horse Corral near Burns, Oregon","11/30/1997: Five members of the Animal and Earth Liberation Fronts (ALF and ELF), Jacob Ferguson, Kevin Tubbs, Josephine Overaker, William Rodgers, and Rebecca Rubin, freed horses and set arson to the Bureau of Land Management (BLM) Wild Horse Corral near Burns, Oregon in the United States, causing over $190,000 in damages.  The perpetrators placed incendiary devices at three locations in the barn and at two other locations, next to and inside a new tractor parked near the barn, then released the 500 horses, and placed different locks on the gates to the access road to block first responders from the scene.  There were no casualties in the incident.  A dozen horses escaped, but were subsequently recaptured, and none were injured. The BLM Horse Corral was targeted because the perpetrators  had read an article about an auction of wild horses in which buyers would adopt the horses and then sell them at a higher price to slaughterhouses, so the group wanted to ""help halt the BLM’s illegal and immoral business of rounding up wild horses from public lands and funneling them to slaughter,"" as they stated in their released communiqu? claiming responsibility for the incident."
1998,1,29,United States,Alabama (U.S. State),Birmingham,33.520295,-86.811504,1,,"01/29/1998: In Birmingham, Alabama, U.S.A., an off-duty officer, Robert Sanderson, was killed by a bomb just after he arrived for work as a security guard at the Birmingham Abortion Clinic. He became the nation's first fatality in an abortion clinic bombing. A nurse was also severely injured. In 2005 Eric Rudolph pleaded guilty to this and three earlier bombing attacks in Atlanta and was sentenced to life in prison. The Army of God group claimed responsibility for the bombings in a letter to news agencies."
1998,2,23,United States,New York (U.S. State),Rochester,43.1555,-77.616033,0,"at the Durand-Eastman Park in Rochester, NY","2/23/1998: Two fake bombs were discovered by a parks employee and police at Durand-Eastman Park in Rochester, New York in the United States. The park was closed down for several hours when an employee found a suspicious device at one of the bait sites.  It is suspected that the devices, which appeared to be metal and about 2 inches in diameter and about 18 to 24 inches long, were planted by members of the Animal Liberation Front (ALF) as letters ""ALF"" and the words, ""There's a bomb at the site. No killing of deer""  were  written in red paint on the road and at the scene.  The incident was apparently in protest of the county's bait-and-shoot program.  Later in the day, a warning letter from ALF was found in the mailbox of county Parks Director Allen Cassidy, demanding that the program be stopped."
1998,3,26,United States,California (U.S. State),Marina Del Rey,33.985215,-118.452109,0,,"03/26/1998:  Kathryn Schoonover sent envelopes filled with cyanide to several police officers, city officials, and mental health workers in Marina Del Rey, California, U.S.A.  No injuries were reported in the incident."
1998,3,31,United States,Puerto Rico (Commonwealth),Arecibo,18.47239,-66.719734,0,,"03/31/1998: The Macheteros claimed responsibility for a firebombing at a superaqueduct construction project in Arecibo, Puerto Rico. The Macheteros took responsibility for the incident and stated that the bombing signaled the beginning of a series of attacks in defense of Puerto Rico and its natural resources from the Government of Puerto Rico.  The explosion caused significant damage to the project but caused no injuries."
1998,4,1,United States,California (U.S. State),Pacific Beach,32.797826,-117.240314,0,,"04/01/1998: An unidentified assailant threw a Molotov Cocktail at the 1600 Thomas Avenue Building in Pacific Beach, California, U.S.A. The fire was quickly extinguished, causing only minor damage. The attack was specifically aimed at the office of Planned Parenthood."
1998,4,6,United States,North Dakota (U.S. State),Fargo,46.87591,-96.781764,0,,"04/06/1998: A mentally unstable man broke a window at the Fargo Women's Health Organization in Fargo, North Dakota, U.S.A., throwing a container of kerosene into the clinic.  The kerosene failed to ignite.  The clinic had been the brunt of several vandalism attacks in the past.  Randal Hanson was found guilty of the crime, but his defense lawyer argued that he was mentally unstable."
1998,4,14,United States,New Mexico (U.S. State),Santa Fe,35.691543,-105.937406,0,,"04/14/1998: An anti-abortion activist set fire to an area within a Sante Fe gallery in New Mexico, U.S.A.. This attack occurred just moments before a pro-choice abortion activist was set to speak. The gallery suffered minor fire damage, but there were no casualties."
1998,5,4,United States,Florida (U.S. State),Wimauma,27.713726,-82.29624,0,"at the Florida Veal Processors Inc., at 6712 State Road 674 in Wimauma, FL","05/04/1998: The Animal Liberation Front (ALF) claimed responsibility for an arson set at the Florida Veal Processors Inc., in Wimauma, Florida in the United States, causing $500,000 in damages to the building. No one was injured in the blaze, which was set in two places: in an office on the first floor and in an upstairs employee locker area.  The initials ""A.L.F."" were spray-painted on the building, and in their statement of responsibility the group wrote, ""The action was done on behalf of the hundreds of calves every year in the American veal industry who are kept in isolation, denied freedom of movement and fed a deliberately unhealthy diet for the entirety of their short lives until they are slaughtered at a hell like Florida Veal Processors."""
1998,6,9,United States,Puerto Rico (Commonwealth),Rio Piedras,18.39677,-66.046608,0,Barbosa Avenue,"6/9/1998: The Macheteros bombed a Banco Popular branch in Rio Piedras, Puerto Rico.  There were no casualties but the front of the bank was damaged.  After the incident, the Macheteros released a communiqu?stating that the bombing was to protest the impending sale of the Puerto Rican Telephone Company to a United States conglomerate."
1998,6,21,United States,Washington (U.S. State),Olympia,47.039225,-122.891429,0,"at the U.S.D.A. Animal Plant Health Inspection Service (APHIS), which was housed in the Forest Land Management Center at 9701 Blomberg Street SW, Olympia, Washington","06/21/1998: Three members of the Animal and Earth Liberation Fronts (ALF and ELF) placed and ignited six five-gallon buckets of fuel at three different places on the exterior of the U.S.D.A. Animal Plant Health Inspection Service (APHIS), which was housed in the Forest Land Management Center in Olympia, Washington in the United States.  The fires were started with a fire starter and a lit fuel-soaked sponge, which were thrown into the buckets of fuel.  The fire spread to the building, causing an estimated $1,200,000 damage to the building and contents.  There were no casualties in the incident. A few hours after the APHIS arson, the perpetrators set incendiary devices at the  U.S.D.A. Animal Damage Control (ADC) facility, also in Olympia, Washington, only about 12 miles from the APHIS building. The groups claimed responsibility for the arsons in letter, stating that the acts were a ""great cleansing process"" and ""This war on wildlife and nature must end! We will not stop until it does."" The perpetrators were part of a group calling themselves ""The Family,"" which committed nearly 20 arson and ecotage attacks over a 6 year period."
1998,6,21,United States,Washington (U.S. State),Olympia,47.039225,-122.891429,0,"at the U.S.D.A Animal Damage Control (ADC) facility at 720 Oleary Street Northwest in Olympia, Washington","06/21/1998: Three members of the Animal and Earth Liberation Fronts (ALF and ELF) placed and ignited two incendiary devices outside the U.S.D.A. Animal Damage Control (ADC) facility in Olympia, Washington in the United States.  Each device, consisting of two five-gallon plastic buckets filled with a mixture of gasoline, heavy petroleum distillate and detergent, functioned properly and the fire spread to a wood fiber/paraffin solid fuel mixture and then to the bucketed fuel.  There were no casualties in the incident. The fire caused approximately $500,000 in damage.  A few hours prior to the ADC arson, the perpetrators ignited fuel filled buckets at the  U.S.D.A. APHIS facility, also in Olympia, Washington, only about 12 miles from the ADC building. The groups claimed responsibility for the arsons in communiqu? stating that the acts were a ""great cleansing process"" and ""This war on wildlife and nature must end! We will not stop until it does.""  The perpetrators were part of a group calling themselves ""The Family,"" which committed nearly 20 arson and ecotage attacks over a 6 year period."
1998,6,24,United States,Puerto Rico (Commonwealth),Santa Isabel,17.969195,-66.403934,0,,"06/24/1998: An explosive device, concealed in a flashlight, detonated in the hands of a police officer at a bank in the town of Santa Isabel, Puerto Rico. The device had been planted at a branch of the Banco Popular, which is part of a consortium that is in the process of buying the Puerto Rico Telephone Company. The Puerto Rican government signed a deal where the phone company, commonly called Telefonica, was sold to a consortium led by U.S. communications giant, GTE Corp. This attack comes amid rising tensions all over Puerto Rico in response to this phone company sale. The blast tore a finger off the officer's right hand and also injured his left hand and leg. Though no group claimed responsibility for this attack, the explosive device was similar in makeup to those used by the guerilla group, Los Macheteros in bank bombings early in the month."
1998,6,27,United States,New Mexico (U.S. State),Jemez Mountains,35.602067,-106.723464,0,Santa Fe National Forest,"6/27/1998: Raymond Kodiak Sandoval, a former member of the Minutemen Militia, set two fires in the Jemez Mountains in New Mexico, United States that merged into a single fire.  The blaze, later monikered the Oso Complex Fire, lasted one week and required over eight-hundred firemen to be extinguished.  The fire burned over five thousand acres of land and caused around $3,500,000 in damages."
1998,7,9,United States,Puerto Rico (Commonwealth),Guaynabo,18.366724,-66.117555,0,,"07/09/1998: Five people were arrested as they attempted to plant homemade explosive devices at the Puerto Rico Telephone Company headquarters in Guaynabo. The suspects possessed four bombs that were made of acid, metal, keys and shards of glass. This incident comes about a month after the Puerto Rican government signed a deal where the Puerto Rico Telephone Company was sold to a consortium led by US Communications company, GTE Corporation."
1998,7,16,United States,New Jersey (U.S. State),Paramus,40.92673,-74.060294,0,,"07/16/1998: The Animal Liberation Front (ALF) set fire to a van from Steve Corn Furs in Paramus, New Jersey, U.S.A.. No injuries were reported."
1998,7,24,United States,District of Columbia,Washington,38.89037,-77.031959,2,,"07/24/1998: An individual, Russell Weston, was suspected of attacking the U.S. Capitol building in Washington D.C., U.S.A., killing two policemen and injuring one."
1998,8,2,United States,Indiana (U.S. State),Lafayette,40.41737,-86.876554,0,,"08/02/1998: A stolen pickup truck carrying a homemade bomb crashed through the doors of the county courthouse in Lafayette, Indiana, U.S.A., and ignited an accelerant on board, causing a fire that heavily damaged the building. However, the bomb did not explode and no one was injured."
1998,8,21,United States,Ohio (U.S. State),Columbus,39.96196,-83.002984,0,,"8/21/1998: Unknown perpetrators ignited a fire at the still under construction office of Dr. Mervyn Samuel in Columbus, Ohio, United States.  There were no casualties, but the future health care facility sustained around $100 in damages.  As part of his position as an obstetrician-gynecologist Dr. Samuel performed abortions."
1998,9,8,United States,North Carolina (U.S. State),Fayetteville,35.054495,-78.877579,0,Fire ignited at back door of the facility,"9/8/1998:  In a series of related attacks, unknown perpetrators ignited a fire at the Carolina Women's Clinic in Fayetteville, North Carolina, United States.  There were no casualties, but abortion clinic sustained $17,000 in damages."
1998,9,8,United States,North Carolina (U.S. State),Fayetteville,35.054495,-78.877579,0,Fire ignited at roof of building,"9/8/1998:  In a series of related attacks, unknown perpetrators ignited a fire at the Hallmark Clinic in Fayetteville, North Carolina, United States.  There were no casualties, but abortion clinic sustained $7,000 in damages."
1998,9,21,United States,California (U.S. State),Arcata,40.86743,-124.085154,0,"at Redwood Coast Trucking Company at 2210 Peninsula Drive in Arcata, California","09/21/1998:  Two members of the Animal and Earth Liberation Fronts (ALF and ELF), Jacob Ferguson and Kendall Tankersley, placed eleven incendiary devices in logging trucks in the parking lot of the Redwood Coast Trucking Company in Arcata, California in the United States.  One incendiary ignited, completely destroying the truck and causing a loss of $40,000.  The other ten incendiaries failed to function properly.  There were no casualties in the incident.  After placing the incendiaries at the Redwood trucking company, the two drove to another trucking company nearby and attempted to set arson there as well.  Ferguson and Tankersley were part of a group calling themselves ""The Family,"" which committed nearly 20 arson and ecotage attacks over a 6 year period. Neither Ferguson nor Tankersley was ever charged or convicted for this particular incident, but both were sentenced for other arsons during the 6 year time period."
1998,9,21,United States,California (U.S. State),Arcata,40.86743,-124.085154,0,"at Wayne Bare Trucking Company at 5550 West End Road in Arcata, California","09/21/1998:  After placing 11 incendiary devices at the Redwood Coast Trucking Company just an hour or so earlier,  two members of the Animal and Earth Liberation Fronts (ALF and ELF), Jacob Ferguson and Kendall Tankersley, attempted to set arson to the Wayne Bare Trucking Company in Arcata, California in the United States.  However, one incendiary ignited prematurely when Ferguson's gloves caught on fire as he tried to light the incendiary.  The two then abandoned the plan and left.  The fire caused no monetary loss or damage, only pine needles and grass were burned inside the fenced area.  Authorities found  several timing devices, consisting of wooden matches wrapped around an incense stick, in the driveway to the business and on the ground in the fenced lot, as well as a burned remnant of a kitchen sponge along with a cigarette lighter.  There were no casualties in the incident.  Ferguson and Tankersley were part of a group calling themselves ""The Family,"" which committed nearly 20 arson and ecotage attacks over a 6 year period. Neither Ferguson nor Tankersley was ever charged or convicted for this particular incident, but both were sentenced for other arsons during the 6 year time period."
1998,10,3,United States,North Carolina (U.S. State),Lakedale,35.02472,-78.89917,0,South of Fayetteville.,"10/03/1998: Six sticks of dynamite, bundled with black tape and a kitchen timer, were discovered at the Carolina Women's Clinic south of Fayetteville, North Carolina, U.S.A. No injuries or damage resulted from this incident and there was no claim of responsibility. In addition, the Hallmark Clinic was also attacked on the same day."
1998,10,3,United States,North Carolina (U.S. State),Fayetteville,35.054495,-78.877579,0,East of Fayetteville,"10/03/1998: Six sticks of dynamite, bundled with black tape and a kitchen timer, were discovered at the Hallmark Clinic east of the Fayetteville, North Carolina, U.S.A. No injuries or damage resulted from this incident and there was no claim of responsibility. In addition, the Carolina Women's Clinic was also attacked on the same day."
1998,10,11,United States,Wyoming (U.S. State),Rock Springs,41.58616,-109.222772,0,"at the Burns Bureau of Land Management Wild Horse Corral in Rock Springs, Wyoming","10/11/1998: Seven members of the Animal and Earth Liberation Fronts (ALF and ELF) freed horses and attempted to burn down the Bureau of Land Management's Wild Horse Corral in Rock Springs, Wyoming in the United States.   The perpetrators placed incendiary devices near buildings and vehicles, specifically targeting a truck used to transport horses, but while the devices were being planted, one of the perpetrators prematurely opened one of the gates, and the horses started running loose, at which point, the group aborted the plan, and left behind sponges, gas cans, buckets of fuel, and some timing devices before fleeing the scene.  None of the incendiaries functioned properly; thus, there were no casualties or property damage at the scene.  The release of the horses cost BLM about $2,426 in aviation expenses to retrieve the freed horses.  The next month, the group claimed responsibility for the incident in the name of ALF and ELF as a press release on their website, stating the BLM horse corral was targeted for ""slaughtering horses for foreign dinner plates."" The perpetrators were part of a group calling themselves ""The Family,"" which committed nearly 20 arson and ecotage attacks over a 6 year period."
1998,10,19,United States,Colorado (U.S. State),Vail,39.645261,-106.384788,0,"at the Vail Mountain Ski Resort outside of Vail, CO","10/19/1998: Members of the Animal and Earth Liberation Fronts (ALF and ELF) claimed responsibility for setting multiple fires at the Vail Ski Resort outside of Vail, Colorado in the United States, causing an estimated $24 million in damages and loss.  There were no casualties in the incident; however, the fires caused structural damage to radio towers, ski lift towers, restaurants, and the ski patrol office. Altogether there was damage to eight structures, including four ski lifts, at two sites on a stretch of land about a mile apart; five structures were damaged at one site and three at the second.  In a communiqu?sent via email to the Liberation Collective and various  local universities, newspapers, and public radio stations, both ALF and ELF claimed responsibility for the incident, stating that the motive was to protect the lynx habitat and warned that skiers should choose alternative destinations. The perpetrators were part of a group calling themselves ""The Family,"" which committed nearly 20 arson and ecotage attacks over a 6 year period."
1998,10,23,United States,New York (U.S. State),Amherst,42.978371,-78.799942,1,,"10/23/1998: Dr. Barnett Slepian was shot in Amherst, New York, U.S.A. Slepian had been the target of anti-abortion protesters since the 1980's.  James Charles Kopp was ultimately found guilty of the killing."
1998,10,27,United States,New Hampshire (U.S. State),Concord,43.20725,-71.536604,0,,"10/27/1998: A pipe bomb was found on the steps outside the Concord Public Library in Concord, New Hampshire, U.S.A.. Authorities discovered the device after Governor Jeanne Shaheen's office received a threatening letter. The device did not explode."
1998,10,27,United States,New Hampshire (U.S. State),Concord,43.20725,-71.536604,0,,"10/27/1998: A pipe bomb was found on the steps outside the New Hampshire State Library in Concord, New Hampshire, U.S.A.. Authorities discovered the device after Governor Jeanne Shaheen's office received a threatening letter. The device did not explode."
1998,12,26,United States,Oregon (U.S. State),Medford,42.32356,-122.875614,0,"at the U.S. Forest Industries office at 2611 Whittle Ave in Medford, OR","12/26/1998: In a fax received by The Associated Press, members of the Earth Liberation Front (ELF) claimed responsibility for setting fire to the U.S. Forest Industries headquarters office in Medford, Oregon in the United States, causing about $990,220 in damage.  The arson was caused by an incendiary, composed of two five-gallon buckets filled with a fuel mixture and timing devices, which was placed in front of the building behind some bushes. There were no casualties in the incident.  The communiqu?sent to AP and also published in an Internet news release from the Animal Liberation Frontline Information Service, stated that the act was performed as retaliation for the forests and animals lost to ""feed the wallets of greedy"" corporations. The perpetrators were part of a group calling themselves ""The Family,"" which committed nearly 20 arson and ecotage attacks over a 6 year period."
1999,3,13,United States,North Carolina (U.S. State),Asheville,35.59846,-82.553144,0,,"03/13/1999: The Femcare Clinic in Asheville, North Carolina, U.S.A., was the target of a suspected bomb attack. The bomb, which failed to fully explode, could have caused significant damage. The abortion clinic was closed at the time of the attack. No one claimed responsibility for this incident."
1999,3,16,United States,New Mexico (U.S. State),Albuquerque,35.08418,-106.648639,0,Fire ignited at front and back doors,"3/16/1999: Ricky Lee McDonald ignited a fire at the Planned Parenthood of New Mexico clinic in Albuquerque, New Mexico, United States.  There were no casualties, but the abortion clinic sustained $3,000 in damages."
1999,3,19,United States,New Mexico (U.S. State),Santa Fe,35.691543,-105.937406,0,,"03/19/1999: A pipe bomb was left in the mailbox of the Forest Guardians, an environmentalist group, in Santa Fe, New Mexico, U.S.A.. The pipe bomb was 10 inches long, had a cigarette fuse and was disarmed by the bomb squad. The Forest Guardians had been threatened previously for their pro-environment agenda. The perpetrators were unknown."
1999,3,26,United States,District of Columbia,Washington,38.89037,-77.031959,0,,"3/26/1999: Frank Darwin Alexander sent a mail bomb to the White House addressed to Bill Clinton.  The device detonated in inside a truck trailer at the Washington D.C., United States bulk mail center.  There were no casualties but three containers of mail were damaged."
1999,3,27,United States,New Jersey (U.S. State),Franklin Township,40.493889,-74.516944,0,"at the Big Apple Circus in Colonial Park in Franklin Township, NJ","03/27/1999: Two tractor-trailer trucks of the Big Apple Circus were destroyed, and a flatbed truck sustained damage in a firebombing targeting the circus being held at Colonial Park in Franklin Township in Somerset County, New Jersey, United States.  An additional incendiary device, which had failed to function, was discovered in the cab of a backhoe that was parked behind the destroyed vehicles.  In a statement sent to The Record, the Animal Liberation Front (ALF) claimed responsibility for using gallon containers filled with gasoline and topped with candles to set fire to the trucks, claiming they targeted the circus ""to draw attention to""enslaved""and""exploited"" performers.""  There were no casualties, nor injuries to animals in the incident.  The property damage was estimated at $70,000."
1999,3,28,United States,Texas (U.S. State),San Antonio,29.42449,-98.494624,0,,"3/28/1999: Frank Darwin Alexander sent a mail bomb addressed to John Hagee, a preacher with Cornerstone Ministries, in San Antonio.  The device detonated at the Dallas, Texas, United States bulk mail center.  There were no casualties but machinery and equipment at the facility were slightly damaged."
1999,3,28,United States,Wisconsin (U.S. State),Milwaukee,43.04181,-87.906844,0,Fire ignited at the rear door of the facility,"3/28/1999: Peter Quinn ignited a fire at the Summit Women's Health Organization in Milwaukee, Wisconsin, United States.  The clinic sustained minor damages.  There were no casualties."
1999,3,29,United States,Nevada (U.S. State),Las Vegas,36.171915,-115.139974,0,,"3/29/1999: Frank Darwin Alexander sent a mail bomb addressed to the Bureau of Alcohol, Tobacco and Firearms office in Las Vegas, Nevada, United States.  Alexander notified authorities that the bomb was located at the Las Vegas Greyhound bus station and the device was subsequently removed."
1999,3,29,United States,Idaho (U.S. State),Sioux Falls,43.549975,-96.700327,0,Bush in front of clinic,"3/29/1999: Martin Uphoff set a bush on fire that was located in front of the Planned Parenthood of Sioux Fall, South Dakota, United States.  The fire did not spread to the abortion clinic but caused $100 in damages to the bush."
1999,3,31,United States,Wisconsin (U.S. State),Waukesha,43.014423,-88.235513,0,Fire ignited near window,"3/31/1999: Peter Quinn broke into the Planned Parenthood clinic in Waukesha, Wisconsin, United States, through a window and ignited a fire.  There were no casualties, but the fire caused $400 in damages to the health care facility."
1999,4,10,United States,Colorado (U.S. State),Colorado Springs,38.83345,-104.821814,0,1259 Lake Plaza Drive,"4/10/1999: Unknown perpetrators set fire to the Internal Revenue Service Building in Colorado Springs, Colorado, United States.  The buildings sustained heavy damages and one firefighter was injured fighting the blaze."
1999,4,20,United States,Colorado (U.S. State),Littleton,39.616905,-105.014519,15,Near Littleton in unincorporated Jefferson County,"04/20/1999: Two armed high school students opened fire in Columbine High School, killing 12 students and one teacher, and wounding 24 before committing suicide. The school is located in Littleton, Colorado, U.S.A."
1999,5,0,United States,Washington (U.S. State),Cle Elum,47.19504,-120.939419,0,"at chip mill in Cle Elum, WA","05/00/1999: Unknown perpetrators set fire to a log loader at a chip mill near Cle Elum, Washington in the United States.  There were no casualties reported in the incident, but the loader was destroyed, costing the mill $65,000."
1999,5,1,United States,New Mexico (U.S. State),Albuquerque,35.08418,-106.648639,0,Fire ignited at front door,"5/1/1999: Ricky Lee McDonald ignited a fire at the Planned Parenthood of New Mexico clinic in Albuquerque, New Mexico, United States.  There were no casualties, but the abortion clinic sustained $5,000 in damages."
1999,5,9,United States,Oregon (U.S. State),Eugene,44.04992,-123.088544,0,"at Childers Meat Company at 29476 Airport Road in Eugene, OR","05/09/1999: Six members of the Animal and Earth Liberations Fronts (ALF and ELF),  Jacob Ferguson, Stanislas Meyerhoff, Kevin Tubbs, Josephine Overaker, Chelsea Gerlach, and a sixth individual, placed two incendiary devices on the exterior of the office of the Childers Meat Company in Eugene, Oregon in the United States.  One incendiary was placed in the southwest corner of the entrance alcove and the second one on the west side between two buildings.  The blasts caused the building to be completely destroyed, with damage estimated at $1,177,000.  There were no casualties in the incident.  On May 27, the perpetrators sent out a communiqu? claiming responsibility for the arson in the name of ""ALF,"" stating that the devices were purposefully placed near a natural gas line, and that ""As long as companies continue to operate and profit off of Mother Earth and Her sentient beings, the Animal Liberation Front will continue to target these operations and their insurance companies until they are all out of business.""  The perpetrators were part of a group calling themselves ""The Family,"" which committed nearly 20 arson and ecotage attacks over a 6 year period."
1999,6,18,United States,California (U.S. State),Sacramento,38.579065,-121.491014,0,,"06/18/1999: Arsonists attacked the B'nai Israel synagogue in downtown Sacramento, California, U.S.A.. This was the first of three attacks launched within minutes of each other on synagogues in the Sacramento area. This fire damaged the synagogue, but no casualties were reported. Propaganda fliers left at the scene of the blast blamed the ""North Atlantic Terrorist Organization"" and ""Jewsmedia"" for the war in Kosovo."
1999,6,18,United States,California (U.S. State),Carmichael,38.617127,-121.328284,0,,"06/18/1999: Unknown arsonists attacked Congregation Beth Shalom synagogue in Carmichael, Sacramento County, California, U.S.A.. This was the second of three attacks launched within minutes of each other on synagogues in the Sacramento area. This fire damaged the synagogue, but no casualties were reported."
1999,6,18,United States,California (U.S. State),Arden-Arcade,38.586157,-121.39274,0,,"06/18/1999: Unknown arsonists attacked Kenesset Israel Torah Center synagogue in Sacramento, California, U.S.A.. This was the last of three attacks launched within minutes of each other on synagogues in the Sacramento area. This fire damaged the synagogue, but no casualties were reported."
1999,7,1,United States,California (U.S. State),Redding,40.587515,-122.392934,2,Happy Valley,"7/1/1999: Mathew Williams and Tyler Williams broke into the home of Gary Matson and Winfield Scott Mowder, an openly gay couple in Redding, California, United States.  The Williams brothers shot and killed Matson and Mowder and stole Matson's credit card and car.  Mathew and Tyler Williams were both affiliated with the Christian Identity movement and shared views that Blacks, Homosexuals, and Jews were subhuman and needed to be eliminated for the survival of the White race."
1999,7,2,United States,Illinois (U.S. State),Chicago,41.88415,-87.632409,0,,"07/02/1999: Perpetrator, Benjamin Nathaniel Smith, shot at 15 people leaving a Jewish temple in Chicago, Illinois, U.S.A. Six people were injured in the attack.  Smith, an avowed white supremacists and member of the Christian Identity church, World Church of the Creator, went on to injure three and kill two more people in his three day shooting spree.  As the police closed in on Smith, he committed suicide."
1999,7,2,United States,Illinois (U.S. State),Skokie,42.02634,-87.755679,1,,"07/02/1999: Perpetrator, Benjamin Nathaniel Smith, shot and killed Ricky Birdson in Skokie, Illinois, U.S.A. Ricky Birdson was an African American man who was walking with his family at the time of the attack.  Smith, an avowed white supremacists and member of the Christian Identity church, World Church of the Creator, injured a total of nine people and killed two in his three day shooting spree.  As the police closed in on Smith, he committed suicide."
1999,7,2,United States,Illinois (U.S. State),Northbrook,42.12972,-87.831564,0,,"07/02/1999: Perpetrator, Benjamin Nathaniel Smith, shot and injured Fu S. Lin in Northbrook, Illinois, U.S.A. Fu S. Lin was an Asian-American. Smith, an avowed white supremacists and member of the Christian Identity church, World Church of the Creator, injured a total of nine people and killed two in his three day shooting spree.  As the police closed in on Smith, he committed suicide."
1999,7,2,United States,California (U.S. State),Sacramento,38.579065,-121.491014,0,,"7/2/1999: Benjamin Matthew Williams and James Tyler Williams broke into the Choice Medical Clinic in Sacramento, California, United States and ignited a fire.  There were no casualties but the abortion clinic sustained $100,000 in damages."
1999,7,3,United States,Illinois (U.S. State),Decatur,39.845845,-88.952459,0,,"07/03/1999: Perpetrator, Benjamin Nathaniel Smith, shot and injured an African Minister in Decatur, Illinois, U.S.A. Smith, an avowed white supremacists and member of the Christian Identity church, World Church of the Creator, injured a total of nine people and killed two in his three day shooting spree.  As the police closed in on Smith, he committed suicide."
1999,7,3,United States,Illinois (U.S. State),Springfield,39.801055,-89.643604,0,,"07/03/1999: Perpetrator, Benjamin Nathaniel Smith, shot and injured an individual in Springfield, Illinois, U.S.A. Smith, an avowed white supremacists and member of the Christian Identity church, World Church of the Creator, injured a total of nine people and killed two in his three day shooting spree.  As the police closed in on Smith, he committed suicide."
1999,7,4,United States,Indiana (U.S. State),Bloomington,39.16659,-86.534244,2,,"07/04/1999: Perpetrator, Benjamin Nathaniel Smith, shot and killed Won-Joon Yoon, a Korean-American doctoral student who was leaving a Korean Methodist Church in Bloomington, Indiana, U.S.A. Smith, an avowed white supremacists and member of the Christian Identity church, World Church of the Creator, injured a total of nine people and killed two in his three day shooting spree.  As the police closed in on Smith, he committed suicide."
1999,8,0,United States,Pennsylvania (U.S. State),Unknown,41.203322,-77.194525,0,at fur ranch in Pennsylvania,"08/00/1999: In a 100-letter booby trap letter campaign, animal rights group, The Justice Department claimed responsibility for sending out 100 letters rigged with razor blades to fur ranchers across the United States and Canada. In this particular incident, the wife of a Pennsylvania fur rancher in the United States, cut her thumb while opening the threatening letter.  There were no other injuries in the incident, and not all of the letters were ever confirmed, reported or found.  The Justice Department claimed responsibility for the incident in a communiqu?posted to both their website and that of the Animal Liberation Front (ALF). This was one of two large-scale booby-trapped letter campaigns allegedly committed by this group; the second, (in October 1999) was to 80, or potentially more, scientists and researchers in the vivisection industry conducting research on primates at centers across the United States (102599a-k)."
1999,8,0,United States,Oregon (U.S. State),Unknown,43.804133,-120.554201,0,at three fur ranches in Oregon,"08/00/1999: In a 100-letter booby trap letter campaign, animal rights group, The Justice Department claimed responsibility for sending out 100 letters rigged with razor blades to fur ranchers across the United States and Canada. In this particular incident, at least three Oregon ranchers received the letters, though there were no injuries reported among them.  In a related incident as part of this campaign, one woman in Pennsylvania was cut by the razor (80099a).  Not all of the letters were ever confirmed, reported or found.   The Justice Department claimed responsibility for the incident in a communiqu?posted to both their website and that of the Animal Liberation Front (ALF). This was one of two large-scale booby-trapped letter campaigns allegedly committed by this group; the second, (in October 1999) was to 80, or potentially more, scientists and researchers in the vivisection industry conducting research on primates at centers across the United States (102599a-k)."
1999,8,1,United States,New Hampshire (U.S. State),Greenland,43.03643,-70.840499,0,Incendiary thrown at the back of the facility.,"8/1/1999: Unknown perpetrators threw a firebomb at the Feminist Health Center of Pourtsmouth in Greenland, New Hampshire, United States.  There were no casualties, but the abortion clinic and its surroundings sustained around $20,000 in damages."
1999,8,7,United States,Michigan (U.S. State),Escanaba,45.74564,-87.079759,0,"at residence in Escanaba, Michigan","08/07/1999: Members of the Earth Liberation Front (ELF), Frank Ambrose and  Marie Mason, torched two fishing boats owned by James Boydtson, a retired veterinarian and former mink rancher.  One aluminum boat was completely destroyed by the fire, and the second, badly damaged.  Additionally, the slogan ""Fur is murder. ELF,"" was spray painted on his garage door. There were no casualties in the incident and the amount of property damage is unknown.  Ambrose and Mason were indicted and sentenced for an arson committed at Michigan State University on New Year's eve of 1999, and during their trial, admitted to several other ecotage incidents including this case.  Collectively, they were responsible for about a dozen acts of destruction."
1999,8,10,United States,California (U.S. State),Granada Hills,34.278587,-118.502112,0,,"08/10/1999: A gunman armed with a submachine gun opened fire in the lobby of the North Valley Jewish Community Center in Granada Hills, California, U.S.A., injuring five people. Buford O'Neal Furrow Jr. surrendered to authorities in Las Vegas, Nevada and reportedly told police authorities that he intended the attack as ""a wake-up call to America to kill Jews."""
1999,8,11,United States,Wisconsin (U.S. State),Plymouth,43.71783,-88.116807,0,Near Plymouth,"08/11/1999: The Animal Liberation Front (ALF) claimed responsibility for setting a fire that destroyed United Feeds, a Sheboygan County mink feed mill near Plymouth, Wisconsin, U.S.A.. The perpetrators also released 2,000 mink at a nearby mink farm in a related attack."
1999,8,21,United States,Massachusetts (U.S. State),Northborough,42.310129,-71.655451,0,,"08/21/1999: Eight animal activists, some dressed in military fatigues and wearing black bandannas over their faces, confronted a man they believed was an animal researcher and yelled, ""Animals live and he's going to die."" This attack occurred at the man's home in Northboro, Massachusetts, U.S.A . Police said the suspects damaged the man's mailbox and threw a rock through the car window of someone who was visiting him. No one was injured."
1999,8,31,United States,Florida (U.S. State),Tallahassee,30.439775,-84.280649,0,,"08/31/1999: Shortly before 1:00 pm local time, a bomb exploded in the first floor men's room of Lee Hall at Florida Agricultural and Mechanical (A & M) University in Tallahassee, Florida, U.S.A.. The explosion was very minor an caused little damage, but authorities suspected that the device malfunctioned and was potentially capable of causing significant damage. An unidentified caller phoned a news station with a racially charged tirade and claimed responsibility for the attack."
1999,9,23,United States,Florida (U.S. State),Tallahassee,30.439775,-84.280649,0,,"09/23/1999: Shortly before 12:00 pm local time, a bomb exploded on the second floor of Perry-Paige Hall at Florida Agricultural and Mechanical (A & M) University in Tallahassee, Florida, U.S.A.. The explosion damaged a bathroom and several light fixtures, but caused no casualties. An unidentified caller phoned a news station with a racially charged tirade and claimed responsibility for the attack."
1999,10,8,United States,South Dakota (U.S. State),Rapid City,44.081165,-103.230889,0,Roof of building,"10/8/1999: Unknown perpetrators placed an incendiary device on the roof of the Planned Parenthood clinic in Rapid City, South Dakota, United States.  The device was poorly constructed and failed to ignite."
1999,10,22,United States,Rhode Island (U.S. State),Warwick,41.698591,-71.461686,0,"at the Harris Furs store at 621 Bald Hill Rd., in Warwick, RI","10/22/1999: The Animal Liberation Front (ALF) claimed responsibility for torching four company vans at the William Harris Furs store in Warwick, Rhode Island in the United States.  Additionally, the group spray painted their initials and the slogan, ""Stop selling furs"" on the side of the building.  There were no casualties in the incident.  The fire completely destroyed one of the vans, and also damaged three others.  The total cost of damages is unknown."
1999,10,25,United States,Texas (U.S. State),San Antonio,29.42449,-98.494624,0,"at the Southwest Foundation for Biomedical Research in San Antonio, TX","10/25/1999: Researcher Sarah Williams-Blangero, received a bobby-trapped letter suspectedly lined with a razor blade, at her office at the Southwest Foundation for Biomedical Research in San Antonio, Texas in the United States. There were no injuries in the incident.  This letter was part of an 80-letter razor-blade campaign, claimed by the animal rights group, The Justice Department.  The group targeted scientists, many specifically from Regional Primate Centers across America, who were conducting AIDS and cancer-related research on non-human primates, and the group was against the use of primates for laboratory tests.  A communiqu?claiming the incident was posted on both The Justice Department's  website as well as that of the Animal Liberation Front (ALF).  Not all of the letters, which also contained diagrams of simple homemade bombs and threats demanding the researchers release the animals and leave the vivisection industry, were confirmed or reported by researchers.  The letters were postmarked from Las Vegas, Nevada and allegedly sent out on October 25."
1999,10,25,United States,Louisiana (U.S. State),Covington,30.479685,-90.095304,0,at the Tulane Regional Primate Research Center at Tulane University in Louisiana,"10/25/1999: Four researchers at the Tulane Regional Primate Research Center at Tulane University in Covington, Louisiana in the United States, received booby-trapped letters containing razor blades.  The Director of the Center, Peter Gerone, was among those who received a letter; it was opened by his secretary, but there were no injuries as she used an envelope opener. These letters were part of an 80-letter razor-blade campaign, claimed by the animal rights group, The Justice Department.  The group targeted scientists, many specifically from Regional Primate Centers across America, who were conducting AIDS and cancer-related research on non-human primates, and the group was against the use of primates for laboratory tests.  A communiqu?claiming the incident was posted on both The Justice Department's  website as well as that of the Animal Liberation Front (ALF). In all, the communiqu?listed eleven Tulane researchers as targets.  Not all of the letters, which also contained diagrams of simple homemade bombs and threats demanding the researchers release the animals and leave the vivisection industry, were confirmed or reported by researchers.  The letters were postmarked from Las Vegas, Nevada and allegedly sent out on October 25."
1999,10,25,United States,California (U.S. State),Davis,38.546644,-121.744807,0,at the University of California-Davis,"10/25/1999: Three researchers at the University of California-Davis in Davis, California in the United States, received booby-trapped letters containing razor blades.   There were no injuries in the incidents. These letters were part of an 80-letter razor-blade campaign, claimed by the animal rights group, The Justice Department.  The group targeted scientists, many specifically from Regional Primate Centers across America, who were conducting AIDS and cancer-related research on non-human primates, and the group was against the use of primates for laboratory tests.  A communiqu?claiming the incident was posted on both The Justice Department's  website as well as that of the Animal Liberation Front (ALF). Not all of the letters, which also contained diagrams of simple homemade bombs and threats demanding the researchers release the animals and leave the vivisection industry, were confirmed or reported by researchers.  The letters were postmarked from Las Vegas, Nevada and allegedly sent out on October 25."
1999,10,25,United States,Minnesota (U.S. State),Minneapolis,44.979035,-93.264929,0,"at the University of Minnesota in Minneapolis, MN","10/25/1999: An unknown number of researchers at the University of Minnesota in Minneapolis, Minnesota in the United States, received booby-trapped letters containing razor blades, as part of  an 80-letter razor-blade campaign, claimed by the animal rights group, The Justice Department.  The group targeted scientists, many specifically from Regional Primate Centers across America, who were conducting AIDS and cancer-related research on non-human primates, and the group was against the use of primates for laboratory tests.  A communiqu?claiming the incident was posted on both The Justice Department's  website as well as that of the Animal Liberation Front (ALF). Not all of the letters, which also contained diagrams of simple homemade bombs and threats demanding the researchers release the animals and leave the vivisection industry, were confirmed or reported by researchers.  The letters were postmarked from Las Vegas, Nevada and allegedly sent out on October 25."
1999,10,25,United States,Oregon (U.S. State),Portland,45.511795,-122.675629,0,"at the Oregon Health Sciences University in Portland, OR","10/25/1999: Four researchers at the Oregon Health Sciences University in Portland, Oregon in the United States, received booby-trapped letters containing razor blades.  One of those researchers was Dr. Don P. Wolf, a senior scientist, who turned the letter over to authorities. There were no injuries in the incidents. These letters were part of an 80-letter razor-blade campaign, claimed by the animal rights group, The Justice Department.  The group targeted scientists, many specifically from Regional Primate Centers across America, who were conducting AIDS and cancer-related research on non-human primates, and the group was against the use of primates for laboratory tests.  A communiqu?claiming the incident was posted on both The Justice Department's  website as well as that of the Animal Liberation Front (ALF). Not all of the letters, which also contained diagrams of simple homemade bombs and threats demanding the researchers release the animals and leave the vivisection industry, were confirmed or reported by researchers.  The letters were postmarked from Las Vegas, Nevada and allegedly sent out on October 25."
1999,10,25,United States,Michigan (U.S. State),Ann Arbor,42.281875,-83.748479,0,"at the University of Michigan in Ann Arbor, MI","10/25/1999: An unknown number of researchers at the University of Michigan in Ann Arbor, Michigan in the United States, received booby-trapped letters containing razor blades, as part of  an 80-letter razor-blade campaign, claimed by the animal rights group, The Justice Department.  The group targeted scientists, many specifically from Regional Primate Centers across America, who were conducting AIDS and cancer-related research on non-human primates, and the group was against the use of primates for laboratory tests.  A communiqu?claiming the incident was posted on both The Justice Department's  website as well as that of the Animal Liberation Front (ALF). Not all of the letters, which also contained diagrams of simple homemade bombs and threats demanding the researchers release the animals and leave the vivisection industry, were confirmed or reported by researchers.  The letters were postmarked from Las Vegas, Nevada and allegedly sent out on October 25."
1999,10,26,United States,Massachusetts (U.S. State),Cambridge,42.36679,-71.106019,0,"at Harvard University in Cambridge, MA","10/26/1999: Six scientists at Harvard University in Cambridge, Massachusetts  in the United States, received booby-trapped letters in envelopes lined with razor blades.  Only one letter was opened, but there were no injuries in the incident.  These letters were part of an 80-letter razor-blade campaign, claimed by the animal rights group, The Justice Department.  The group targeted scientists, many specifically from Regional Primate Centers across America, who were conducting AIDS and cancer-related research on non-human primates, and the group was against the use of primates for laboratory tests.  A communique claiming the incident was posted on both The Justice Department's  website as well as that of the Animal Liberation Front (ALF).  In all, the communique listed twelve Harvard researchers as targets.  Five of the targets that did receive the letters worked at the Harvard-owned New England Regional Primate Research Center in Southboro, Massachusetts.  Not all of the letters, which also contained diagrams of simple homemade bombs and threats demanding the researchers release the animals and leave the vivisection industry, were confirmed or reported by researchers.  The letters were postmarked from Las Vegas, Nevada and allegedly sent out on October 25."
1999,10,26,United States,Alabama (U.S. State),Birmingham,33.520295,-86.811504,0,at the University of Alabama at Birmingham,"10/26/1999: Two primate researchers, Patricia Fultz and Jiri Mestecky, working at the University of Alabama at Birmingham in the United States, received booby-trapped letters containing razor blades, at their campus offices.  There were no injuries in the incident.  The letters were part of an 80-letter razor-blade campaign, claimed by the animal rights group, The Justice Department.  The group targeted scientists, many specifically from Regional Primate Centers across America, who were conducting AIDS and cancer-related research on non-human primates, and the group was against the use of primates for laboratory tests.  A communiqu?claiming the incident was posted on both The Justice Department's  website as well as that of the Animal Liberation Front (ALF).  Not all of the letters, which also contained diagrams of simple homemade bombs and threats demanding the researchers release the animals and leave the vivisection industry, were confirmed or reported by researchers.  The letters were postmarked from Las Vegas, Nevada and allegedly sent out on October 25."
1999,10,27,United States,Georgia (U.S. State),Atlanta,33.748315,-84.391109,0,at the Yerkes Regional Primate Research Center housed at the Woodruff Health Sciences Center at Emory University,"10/27/1999: Six booby-trapped letters laced with razor blades ( similar to those sent to Harvard University researchers)were intercepted at the Yerkes Regional Primate Research Center housed at the Woodruff Health Sciences Center at Emory University in Atlanta, Georgia in the United States. There were no injuries in the incident.  These letters were part of an 80-letter razor-blade campaign, claimed by the animal rights group, The Justice Department.  The group targeted scientists, many specifically from Regional Primate Centers across America, who were conducting AIDS and cancer-related research on non-human primates, and the group was against the use of primates for laboratory tests.  A communiqu?claiming the incident was posted on both The Justice Department's  website as well as that of the Animal Liberation Front (ALF).  Not all of the letters, which also contained diagrams of simple homemade bombs and threats demanding the researchers release the animals and leave the vivisection industry, were confirmed or reported by researchers.  The letters were postmarked from Las Vegas, Nevada and sent out on October 25."
1999,10,27,United States,Wisconsin (U.S. State),Madison,43.07295,-89.386694,0,at the Wisconsin National Primate Research Center at the University of Wisconsin-Madison,"10/27/1999: Four researchers, working with primates at the Wisconsin National Primate Research Center, at the University of Wisconsin in Madison, Wisconsin in the United States, received booby-trapped letters in envelopes containing razor blades.  There were no injuries in the incident.  These letters were part of an 80-letter razor-blade campaign, claimed by the animal rights group, The Justice Department.  The group targeted scientists, many specifically from Regional Primate Centers across America, who were conducting AIDS and cancer-related research on non-human primates, and the group was against the use of primates for laboratory tests.  A communiqu?claiming the incident was posted on both The Justice Department's  website as well as that of the Animal Liberation Front (ALF).  The communiqu?listed eight researchers from the University of Wisconsin, but only four letters had been found.  Not all of the letters, which also contained diagrams of simple homemade bombs and threats demanding the researchers release the animals and leave the vivisection industry, were confirmed or reported by researchers.  The letters were postmarked from Las Vegas, Nevada and were allegedly sent out on October 25."
1999,10,27,United States,Washington (U.S. State),Seattle,47.60356,-122.329439,0,"at the University of Washington in Seattle, WA","10/27/1999: Six University of Washington (UW) scientists in Seattle, Washington in the United States, received booby-trapped letters in envelopes containing razor blades.  One was received by a pharmacy professor. These letters were part of an 80-letter razor-blade campaign, claimed by the animal rights group, The Justice Department.  The group targeted scientists, many specifically from Regional Primate Centers across America, who were conducting AIDS and cancer-related research on non-human primates, and the group was against the use of primates for laboratory tests.  A communiqu?claiming the incident was posted on both The Justice Department's  website as well as that of the Animal Liberation Front (ALF).  In all, the communiqu?listed seventeen UW researchers as targets.  Not all of the letters, which also contained diagrams of simple homemade bombs and threats demanding the researchers release the animals and leave the vivisection industry, were confirmed or reported by researchers.  The letters were postmarked from Las Vegas, Nevada and allegedly sent out on October 25."
1999,11,1,United States,Washington (U.S. State),Seattle,47.60356,-122.329439,0,"at Gap clothing store in Seattle, WA","11/01/1999: Three incendiary devices were thrown through the window of a Gap clothing store in Seattle, Washington in the United States. An encircled ""A"" was spray painted around the store building, a symbol which was used by the Animal Liberation Front (ALF).  The FBI suspected that ALF was responsible.  There were no casualties in the incident, and the damage was minimal.  Literature found at the scene expressed opposition to Gap and the World Trade Organization, which was scheduled to have a meeting in Seattle that month."
1999,12,20,United States,California (U.S. State),Santa Rosa,38.437731,-122.712427,0,"at Fulton Processors Inc., a chicken processing plant in Fulton, CA","12/20/1999: The Animal Liberation Front (ALF) claimed responsibility for an attempted arson at the Fulton Processors, Inc., a chicken processing plant in Fulton, a town outside of Santa, Rosa, California in the United States.  In the facility, authorities found four devices made with broken light bulbs attached to batteries and plastic bottles filled with flammable liquid, though the incendiaries failed to go off.  Additionally, the perpetrators placed paper covered in flammable liquid around the slaughterhouse floor and lined the walls of the wood-framed structure with cardboard. The attempt failed because the lit fuse blew out before it reached the pack of matches, and the light bulbs failed to get hot enough to ignite the newspaper.  There were no casualties in the incident, nor damage.  Though ALF claimed responsibility, but investigators were unable to confirm this claim."
1999,12,25,United States,Oregon (U.S. State),Monmouth,44.84856,-123.236254,0,at Boise Cascade wood products company at 450 N. Pacific Highway,"05/09/1999: Four members of the Earth and Animal Liberations Fronts (ELF and ALF),  Jacob Ferguson, Stanislas Meyerhoff, Josephine Overaker, and Chelsea Gerlach, caused arson to the Boise Cascade wood products company in Monmouth, Oregon in the Unites States.  The group placed two time-delayed electric incendiary devices on the building's exterior, at opposite corners of the building.  The blasts caused the building to be completely destroyed, with damage estimated at $1,689,593.  There were no casualties in the incident.  The perpetrators sent out a communiqu? attributing the incident to ELF, and stating that Boise Cascade ravaged forests in the Pacific Northwest and the incident should be a warning ""to all greedy multinational corporations who don't respect their ecosystems."" The perpetrators were part of a group calling themselves ""The Family,"" which committed nearly 20 arson and ecotage attacks over a 6 year period."
1999,12,30,United States,Oregon (U.S. State),Bend,43.832571,-121.257501,0,"at the Bonneville Power Administration power line tower located about 37 miles southeast of Bend, OR","12/30/1999: Four members of the Earth and Animal Liberation Fronts (ELF and ALF), Jacob Ferguson, Stanislas Meyerhoff, Josephine Overaker, and Chelsea Gerlach, toppled an 80-foot power line tower, owned by the Bonneville Power Administration, about 37 miles southeast of Bend, Oregon, in the United States.  The tower was toppled when the perpetrators dismantled support cables and unscrewed bolts that held the tower in place. Though no electricity was lost or interrupted because the current was automatically switched to an alternate power transmission line, the incident caused $126,000 in loss to the company in equipment and services to restore the power line. The perpetrators did not claim the incident. There were no casualties, but the incident caused a small brush fire, which was quickly extinguished. The perpetrators were part of a group calling themselves ""The Family,"" which committed nearly 20 arson and ecotage attacks over a 6 year period."
1999,12,31,United States,Michigan (U.S. State),East Lansing,42.7375,-84.483779,0,,"12/31/1999: The Earth Liberation Front claimed an arson attack at the agriculture building at Michigan State University located in East Lansing, Michigan, U.S.A.  ELF claimed it set the fire specifically to stop the work of those who study genetically modified food."
2000,1,1,United States,Michigan (U.S. State),Mesick,44.405705,-85.714454,0,"at Michigan 115 Highway near Mesick, MI","01/1/2000: Four members of the Earth Liberation Front (ELF) torched commercial logging equipment, including a flat-bed trailer and a large logging tractor, on the side of Michigan Highway 115, near Mesick, Michigan in the Unites States, causing over $18,000 in damage.  There were no casualties in the incident, which was committed to sabotage lumbering activity.  The four perpetrators, Marie Jeanette Mason, Frank Brian Ambrose, Aren Bernard Burthwick, and Stephanie Lynne Fultz, were also indicted for the New Year's Eve Michigan State University arson in 1999 (199912310003)."
2000,1,3,United States,California (U.S. State),Petaluma,38.232471,-122.644448,0,,"01/03/2000: Unknown suspects set three separate fires on the grounds of the Rancho Veal Corporation in Petaluma, California, U.S.A.. Subsequent investigation determined that an accelerant, believed to be diesel fuel, was used in the attack. The fires damaged office space, two trucks, and an equipment storage facility, resulting in an estimated $150,000 in damages. On March 16, 2000, the North American Animal Liberation Front Press Office released a communiqu?stating that a cell of the Animal Liberation Front (ALF), a terrorist animal rights movement, claimed responsibility for the fires. A similar act of attempted arson had been claimed by ALF against the Rancho Veal Corporation in February 1997.  The same ALF cell is suspected in a number of other attacks on business in the Bay area."
2000,1,3,United States,Ohio (U.S. State),Cincinnati,39.106614,-84.504552,0,,"1/3/2000: In a series of related incidents, a bomb placed in a package was sent to the Cincinnati Planned Parenthood clinic in Ohio, United States.  The device was discovered and subsequently disarmed."
2000,1,3,United States,Ohio (U.S. State),Cincinnati,39.106614,-84.504552,0,,"1/3/2000: In a series of related incidents, a bomb placed in a package was sent to an abortion clinic in Cincinnati, Ohio, United States.  The device was discovered and subsequently disarmed."
